{
  "type": "FeatureCollection",
  "features": [
    {
      "type": "Feature",
      "geometry": {
        "type": "Point",
        "coordinates": [
          30.503966,
          59.940859
        ]
      },
      "properties": {
        "name": "АЗК-1",
        "address": "г. Санкт-Петербург, улица Коммуны, дом 14, литера А",
        "phone": "(812) 521-49-94"
      }
    },
    {
      "type": "Feature",
      "geometry": {
        "type": "Point",
        "coordinates": [
          30.513021,
          59.982428
        ]
      },
      "properties": {
        "name": "АЗК-24",
        "address": "г. Санкт-Петербург, Рябовское шоссе, дом 115, корпус 3, литера А",
        "phone": "+7-921-411-61-21"
      }
    },
    {
      "type": "Feature",
      "geometry": {
        "type": "Point",
        "coordinates": [
          30.459962,
          59.980484
        ]
      },
      "properties": {
        "name": "АЗК-26",
        "address": "г. Санкт-Петербург, Лапинский проспект, дом 10, литера А",
        "phone": "+7-931-207-25-99"
      }
    },
    {
      "type": "Feature",
      "geometry": {
        "type": "Point",
        "coordinates": [
          30.469503,
          59.988555
        ]
      },
      "properties": {
        "name": "АЗК-27",
        "address": "г. Санкт-Петербург, Шафировский проспект, дом 24, литера А",
        "phone": "+7-931-207-26-13"
      }
    },
    {
      "type": "Feature",
      "geometry": {
        "type": "Point",
        "coordinates": [
          30.44415,
          60.000906
        ]
      },
      "properties": {
        "name": "АЗК-28",
        "address": "г. Санкт-Петербург, Пискаревский проспект, дом 135, литера А",
        "phone": "+7-931-207-26-37"
      }
    },
    {
      "type": "Feature",
      "geometry": {
        "type": "Point",
        "coordinates": [
          30.431933,
          60.026616
        ]
      },
      "properties": {
        "name": "АЗК-10",
        "address": "г. Санкт-Петербург, улица Руставели, дом 48а, литера А",
        "phone": "(812) 531-66-81"
      }
    },
    {
      "type": "Feature",
      "geometry": {
        "type": "Point",
        "coordinates": [
          30.423961,
          59.856581
        ]
      },
      "properties": {
        "name": "АЗК-11",
        "address": "г. Санкт-Петербург, Софийская улица, дом 60, корпус 4, литера А",
        "phone": "(812) 701-81-64"
      }
    },
    {
      "type": "Feature",
      "geometry": {
        "type": "Point",
        "coordinates": [
          29.920267,
          59.688767
        ]
      },
      "properties": {
        "name": "АЗК-13",
        "address": "Ленинградская область, Ломоносовский район, с. Русско-Высоцкое, частный сектор, д. 2 ",
        "phone": "+7-921-989-74-77"
      }
    },
    {
      "type": "Feature",
      "geometry": {
        "type": "Point",
        "coordinates": [
          29.982333,
          60.033417
        ]
      },
      "properties": {
        "name": "АЗК-14",
        "address": "г. Санкт-Петербург, поселок Лисий Нос, Приморское шоссе, дом 142, литера А",
        "phone": "(812) 434-89-53"
      }
    },
    {
      "type": "Feature",
      "geometry": {
        "type": "Point",
        "coordinates": [
          30.233333,
          59.8695
        ]
      },
      "properties": {
        "name": "АЗК-15",
        "address": "г. Санкт-Петербург, дорога на Турухтанные острова, дом 18а, литера А",
        "phone": "(812) 324-21-89"
      }
    },
    {
      "type": "Feature",
      "geometry": {
        "type": "Point",
        "coordinates": [
          30.288713,
          59.899535
        ]
      },
      "properties": {
        "name": "АЗК-18",
        "address": "г. Санкт-Петербург, Балтийская улица, дом 43, литера А",
        "phone": "(812) 252-08-17"
      }
    },
    {
      "type": "Feature",
      "geometry": {
        "type": "Point",
        "coordinates": [
          31.479028,
          58.826559
        ]
      },
      "properties": {
        "name": "АЗК-16",
        "address": "Новгородская область, Новгородский район, Трубичинское сельское поселение, АЗК № 16",
        "phone": "+7-921-895-73-97"
      }
    },
    {
      "type": "Feature",
      "geometry": {
        "type": "Point",
        "coordinates": [
          30.463874,
          59.765891
        ]
      },
      "properties": {
        "name": "АЗК-17",
        "address": "г. Санкт-Петербург, поселок Шушары, Московское шоссе, дом 156, литера А",
        "phone": "+7-921-875-42-16"
      }
    },
    {
      "type": "Feature",
      "geometry": {
        "type": "Point",
        "coordinates": [
          30.320081,
          59.753112
        ]
      },
      "properties": {
        "name": "АЗК-30",
        "address": "г. Санкт-Петербург, поселок Шушары, Пулковское шоссе, дом 110, лит. А",
        "phone": "+7-921-435-43-59"
      }
    },
    {
      "type": "Feature",
      "geometry": {
        "type": "Point",
        "coordinates": [
          30.39136,
          59.79367
        ]
      },
      "properties": {
        "name": "АЗК-31",
        "address": "г. Санкт-Петербург, посёлок Шушары, Пушкинский район, Витебский проспект, дом 15",
        "phone": "+7-921-311-78-35"
      }
    },
    {
      "type": "Feature",
      "geometry": {
        "type": "Point",
        "coordinates": [
          30.382867,
          59.811767
        ]
      },
      "properties": {
        "name": "АЗК-4",
        "address": "г. Санкт-Петербург, поселок Шушары, Московское шоссе, дом 11, литера А",
        "phone": "(812) 325-27-63"
      }
    },
    {
      "type": "Feature",
      "geometry": {
        "type": "Point",
        "coordinates": [
          30.233653,
          59.861682
        ]
      },
      "properties": {
        "name": "АЗК-19",
        "address": "г. Санкт-Петербург, пр. Маршала Жукова, д. 23, литер А",
        "phone": "(812) 753-17-11"
      }
    },
    {
      "type": "Feature",
      "geometry": {
        "type": "Point",
        "coordinates": [
          30.098631,
          59.734617
        ]
      },
      "properties": {
        "name": "АЗС-200",
        "address": "г. Санкт-Петербург, город Красное Село, Привокзальная улица, дом 18, литера Д",
        "phone": "(812) 741-41-11"
      }
    },
    {
      "type": "Feature",
      "geometry": {
        "type": "Point",
        "coordinates": [
          30.285633,
          59.97045
        ]
      },
      "properties": {
        "name": "АЗК-2",
        "address": "г. Санкт-Петербург г, Песочная наб, Дом 30 Литера А",
        "phone": "(812) 234-62-48"
      }
    },
    {
      "type": "Feature",
      "geometry": {
        "type": "Point",
        "coordinates": [
          30.687697,
          59.897461
        ]
      },
      "properties": {
        "name": "АЗК-20",
        "address": "Ленинградская область, Всеволожский район, д. Разметелево, ул. Разметелевская, д. 63в",
        "phone": "+7-921-318-54-34"
      }
    },
    {
      "type": "Feature",
      "geometry": {
        "type": "Point",
        "coordinates": [
          30.591116,
          59.944262
        ]
      },
      "properties": {
        "name": "АЗК-22",
        "address": "Ленинградская область, Всеволожский муниципальный район, Заневское городское поселение, г.п. Янино-1, производственная зона Янино, ул. Шоссейная, здание №106",
        "phone": "+7-921-435-43-08"
      }
    },
    {
      "type": "Feature",
      "geometry": {
        "type": "Point",
        "coordinates": [
          30.150667,
          60.17685
        ]
      },
      "properties": {
        "name": "АЗК-9",
        "address": "Ленинградская область, г. Сертолово, микрорайон Черная Речка, дом № 26",
        "phone": "(812) 597-19-90"
      }
    },
    {
      "type": "Feature",
      "geometry": {
        "type": "Point",
        "coordinates": [
          30.551291,
          59.752829
        ]
      },
      "properties": {
        "name": "АЗК-21",
        "address": "г. Санкт-Петербург, город Колпино, Финляндская улица, дом 30, корпус 2, литера А",
        "phone": "(812) 328-79-15"
      }
    },
    {
      "type": "Feature",
      "geometry": {
        "type": "Point",
        "coordinates": [
          30.317845,
          60.034479
        ]
      },
      "properties": {
        "name": "АЗК-23",
        "address": "г. Санкт-Петербург г, Выборгское ш, Дом 6б Литера А",
        "phone": "(812) 554-49-34"
      }
    },
    {
      "type": "Feature",
      "geometry": {
        "type": "Point",
        "coordinates": [
          30.384833,
          60.056967
        ]
      },
      "properties": {
        "name": "АЗК-3",
        "address": "г. Санкт-Петербург г,1-й Верхний пер, Дом 3 Литера А",
        "phone": "(812) 592-74-42"
      }
    },
    {
      "type": "Feature",
      "geometry": {
        "type": "Point",
        "coordinates": [
          30.326684,
          59.761572
        ]
      },
      "properties": {
        "name": "АЗК-25",
        "address": "г. Санкт-Петербург, Пулковское шоссе, дом 71, литера А",
        "phone": "+7-921-988-83-41"
      }
    },
    {
      "type": "Feature",
      "geometry": {
        "type": "Point",
        "coordinates": [
          31.812944,
          59.936369
        ]
      },
      "properties": {
        "name": "АЗК-29",
        "address": "Ленинградская область, Кировский р-н, ЗАО \"Шумское\", 89 км Мурманского шоссе",
        "phone": "+7-931-207-26-42"
      }
    },
    {
      "type": "Feature",
      "geometry": {
        "type": "Point",
        "coordinates": [
          31.736472,
          59.935398
        ]
      },
      "properties": {
        "name": "АЗК-32",
        "address": "Ленинградская область, Кировский муниципальный р-н, Шумское сельское поселение в районе д. Дусьево, км 84+400 (справа)",
        "phone": "+7-921-361-08-28"
      }
    },
    {
      "type": "Feature",
      "geometry": {
        "type": "Point",
        "coordinates": [
          34.863643,
          59.347479
        ]
      },
      "properties": {
        "name": "АЗК-33",
        "address": "Ленинградская область, Бокситогорский муниципальный район, Ефимовское городское поселение, село Сомино, на 346 км автодороги Вологда-Новая Ладога, сооружение № 1",
        "phone": "+7-921-435-46-56"
      }
    },
    {
      "type": "Feature",
      "geometry": {
        "type": "Point",
        "coordinates": [
          33.839995000000016,
          59.47436256475141
        ]
      },
      "properties": {
        "name": "АЗС-239",
        "address": "Ленинградская область, Бокситогорский муниципальный район, Бокситогорское городское поселение, город Бокситогорск, ул. Дымское шоссе, дом 7-а",
        "phone": "(81366) 21-002"
      }
    },
    {
      "type": "Feature",
      "geometry": {
        "type": "Point",
        "coordinates": [
          31.555286,
          59.17533
        ]
      },
      "properties": {
        "name": "АЗК-6",
        "address": "Новгородская область, Чудовский район, 588км 980м автомагистрали М10 тер, д.1",
        "phone": "(81665) 41-524"
      }
    },
    {
      "type": "Feature",
      "geometry": {
        "type": "Point",
        "coordinates": [
          30.483982,
          59.846989
        ]
      },
      "properties": {
        "name": "АЗК-7",
        "address": "г. Санкт-Петербург, проспект Обуховской Обороны, дом 138, корпус 1, литера А",
        "phone": "(812) 700-42-56"
      }
    },
    {
      "type": "Feature",
      "geometry": {
        "type": "Point",
        "coordinates": [
          30.475427,
          59.889852
        ]
      },
      "properties": {
        "name": "АЗС-5",
        "address": "г. Санкт-Петербург, переулок Челиева, дом 14, литера А",
        "phone": "(812) 331-77-32"
      }
    },
    {
      "type": "Feature",
      "geometry": {
        "type": "Point",
        "coordinates": [
          30.25495,
          59.991759
        ]
      },
      "properties": {
        "name": "АЗК-8",
        "address": "г. Санкт-Петербург, Торфяная дорога, дом 10, литера А",
        "phone": "(812) 430-97-09"
      }
    },
    {
      "type": "Feature",
      "geometry": {
        "type": "Point",
        "coordinates": [
          30.313272,
          60.016432
        ]
      },
      "properties": {
        "name": "АЗСМ-12",
        "address": "г. Санкт-Петербург, Фермское шоссе, д. 35",
        "phone": "(812) 301-31-22, +7-931-207-69-20"
      }
    },
    {
      "type": "Feature",
      "geometry": {
        "type": "Point",
        "coordinates": [
          32.290146,
          59.927675
        ]
      },
      "properties": {
        "name": "АЗС-201",
        "address": "Ленинградская обл, Волховский муниципальный район, Городское поселение Волховское, Волхов г,Некрасова ул, Строение 8",
        "phone": "(81363) 71-802"
      }
    },
    {
      "type": "Feature",
      "geometry": {
        "type": "Point",
        "coordinates": [
          32.322396,
          59.923582
        ]
      },
      "properties": {
        "name": "АЗС-247",
        "address": "Ленинградская обл, Волховский муниципальный район, Городское поселение Волховское, Волхов г,Новоладожское ш, Строение 5",
        "phone": "(81363) 71-753"
      }
    },
    {
      "type": "Feature",
      "geometry": {
        "type": "Point",
        "coordinates": [
          32.320359,
          60.067867
        ]
      },
      "properties": {
        "name": "АЗС-263",
        "address": "Ленинградская область, Волховский муниципальный район, Иссадское сельское поселение, дер. Юшково, микрорайон \"Мостопоезд\", 11",
        "phone": "(81363) 31-972"
      }
    },
    {
      "type": "Feature",
      "geometry": {
        "type": "Point",
        "coordinates": [
          29.944167,
          59.3025
        ]
      },
      "properties": {
        "name": "АЗС-212",
        "address": "Ленинградская обл, Гатчинский муниципальный район, Сельское поселение Рождественское, автодорога Санкт-Петербург-Псков тер., 79-й км Дом 1",
        "phone": "+7-921-095-07-98"
      }
    },
    {
      "type": "Feature",
      "geometry": {
        "type": "Point",
        "coordinates": [
          28.629671,
          59.380402
        ]
      },
      "properties": {
        "name": "АЗС-213",
        "address": "Ленинградская обл,Кингисеппский р-н,Кингисепп г,Карла Маркса пр-кт, Дом 73 Строение 1",
        "phone": "(81375) 20-285"
      }
    },
    {
      "type": "Feature",
      "geometry": {
        "type": "Point",
        "coordinates": [
          28.634112,
          59.380911
        ]
      },
      "properties": {
        "name": "АЗС-214",
        "address": "Ленинградская обл,Кингисеппский р-н,Кингисепп г,Карла Маркса пр-кт, Строение 72",
        "phone": "(81375) 28-271"
      }
    },
    {
      "type": "Feature",
      "geometry": {
        "type": "Point",
        "coordinates": [
          28.4741,
          59.77795
        ]
      },
      "properties": {
        "name": "АЗС-262",
        "address": "Ленинградская область, Кингисеппский муниципальный район, Вистинское сельское поселение, дер. Вистино, ул. Предпортовая, д. 5",
        "phone": "(81375) 67-150"
      }
    },
    {
      "type": "Feature",
      "geometry": {
        "type": "Point",
        "coordinates": [
          31.974633,
          59.458096
        ]
      },
      "properties": {
        "name": "АЗС-217",
        "address": "Ленинградская область, Киришский муниципальный район, Киришское городское поселение, г. Кириши, ул. Береговая, д. 9",
        "phone": "(81368) 22-104"
      }
    },
    {
      "type": "Feature",
      "geometry": {
        "type": "Point",
        "coordinates": [
          32.044917,
          59.475133
        ]
      },
      "properties": {
        "name": "АЗС-264",
        "address": "Ленинградская область, Киришский муниципальный район, Киришское городское поселение, г. Кириши, шоссе Лесное, д. 1б",
        "phone": "(81368) 91-286"
      }
    },
    {
      "type": "Feature",
      "geometry": {
        "type": "Point",
        "coordinates": [
          32.022216,
          59.438491
        ]
      },
      "properties": {
        "name": "АЗС-265",
        "address": "Ленинградская область, Киришский муниципальный район, Киришское городское поселение, г. Кириши, ул. Строителей, д. 58",
        "phone": "(81368) 30-673"
      }
    },
    {
      "type": "Feature",
      "geometry": {
        "type": "Point",
        "coordinates": [
          32.058567,
          59.492
        ]
      },
      "properties": {
        "name": "КАЗС-2",
        "address": "Ленинградская область, г. Кириши, ш. Энтузиастов, Северная промзона",
        "phone": "(81368) 97-003"
      }
    },
    {
      "type": "Feature",
      "geometry": {
        "type": "Point",
        "coordinates": [
          33.585309,
          60.725957
        ]
      },
      "properties": {
        "name": "АЗС-219",
        "address": "Ленинградская область, Лодейнопольский муниципальный район, Лодейнопольское городское поселение, г. Лодейное Поле, ул. Железнодорожная, д. 5",
        "phone": "(81364) 22-413"
      }
    },
    {
      "type": "Feature",
      "geometry": {
        "type": "Point",
        "coordinates": [
          33.860482,
          60.426603
        ]
      },
      "properties": {
        "name": "АЗС-221",
        "address": "Ленинградская область, Лодейнопольский муниципальный район, Алеховщинское сельское поселение, с. Алеховщина, Лодейнопольское шоссе, дом 38",
        "phone": "(81364) 31-165"
      }
    },
    {
      "type": "Feature",
      "geometry": {
        "type": "Point",
        "coordinates": [
          33.473472,
          60.726839
        ]
      },
      "properties": {
        "name": "АЗС-222",
        "address": "Ленинградская область, Лодейнопольский муниципальный район, Лодейнопольское городское поселение, г. Лодейное Поле, Ленинградское шоссе. Д. 80",
        "phone": "(81364) 22-533"
      }
    },
    {
      "type": "Feature",
      "geometry": {
        "type": "Point",
        "coordinates": [
          33.62675,
          60.718467
        ]
      },
      "properties": {
        "name": "АЗС-245",
        "address": "Ленинградская область, Лодейнопольский муниципальный район, Лодейнопольское городское поселение, автодорога Санкт-Петербург-Мурманск, 232 км + 450 м (слева)",
        "phone": "+7-921-311-74-17"
      }
    },
    {
      "type": "Feature",
      "geometry": {
        "type": "Point",
        "coordinates": [
          34.150247,
          60.904245
        ]
      },
      "properties": {
        "name": "АЗС-220",
        "address": "Ленинградская область, Подпорожский муниципальный район, Подпорожское городское поселение, г. Подпорожье, пр. Кирова, д. 29",
        "phone": "(81365) 21-402"
      }
    },
    {
      "type": "Feature",
      "geometry": {
        "type": "Point",
        "coordinates": [
          34.146127,
          60.906251
        ]
      },
      "properties": {
        "name": "АЗС-243",
        "address": "Ленинградская область, Подпорожский муниципальный район, Подпорожское городское поселение, г. Подпорожье, ул. Родниковая, д. 2 ",
        "phone": "(81365) 50-242"
      }
    },
    {
      "type": "Feature",
      "geometry": {
        "type": "Point",
        "coordinates": [
          35.462083,
          60.992703
        ]
      },
      "properties": {
        "name": "АЗС-249",
        "address": "Ленинградская область, Подпорожский муниципальный район, Вознесенское городское поселение, д. 1, литер 1-Н",
        "phone": "(81365) 42-314"
      }
    },
    {
      "type": "Feature",
      "geometry": {
        "type": "Point",
        "coordinates": [
          29.828157,
          58.741009
        ]
      },
      "properties": {
        "name": "АЗС-223",
        "address": "Ленинградская область, Лужский муниципальный район, Лужское городское поселение, г. Луга, ул. Свободы, д. 44",
        "phone": "+7-921-090-10-93"
      }
    },
    {
      "type": "Feature",
      "geometry": {
        "type": "Point",
        "coordinates": [
          29.872055499999973,
          58.77258956566757
        ]
      },
      "properties": {
        "name": "АЗС-224",
        "address": "Ленинградская обл, Лужский р-н, Луга г, Ленинградское ш, Дом 32",
        "phone": "(81372) 22-819"
      }
    },
    {
      "type": "Feature",
      "geometry": {
        "type": "Point",
        "coordinates": [
          30.332067,
          58.810617
        ]
      },
      "properties": {
        "name": "АЗС-225",
        "address": "Ленинградская обл, Лужский р-н, Оредеж п, Пантелеевская ул, Дом 1",
        "phone": "(81372) 77-280"
      }
    },
    {
      "type": "Feature",
      "geometry": {
        "type": "Point",
        "coordinates": [
          29.506575160536375,
          59.455188401113986
        ]
      },
      "properties": {
        "name": "АЗС-227",
        "address": "Ленинградская область, Волосовский район, Волосовское городское поселение, город Волосово, Гатчинское шоссе, дом 11",
        "phone": "(81373) 23-564"
      }
    },
    {
      "type": "Feature",
      "geometry": {
        "type": "Point",
        "coordinates": [
          29.341317,
          59.585767
        ]
      },
      "properties": {
        "name": "АЗС-228",
        "address": "Ленинградская область, Волосовский район, деревня Кайкино, д. 8а",
        "phone": "(81373) 41-325"
      }
    },
    {
      "type": "Feature",
      "geometry": {
        "type": "Point",
        "coordinates": [
          30.135055,
          61.033026
        ]
      },
      "properties": {
        "name": "АЗС-229",
        "address": "Ленинградская область, Приозерский район, г. Приозерск, ул. Чапаева, д. 13",
        "phone": "(81379) 37-288"
      }
    },
    {
      "type": "Feature",
      "geometry": {
        "type": "Point",
        "coordinates": [
          30.192476,
          60.546158
        ]
      },
      "properties": {
        "name": "АЗС-230",
        "address": "Лениградская область, Приозерский район, Раздольевское сельское поселение, д. Раздолье, ул. Приозерское шоссе, д. 1а",
        "phone": "+7-921-311-75-69"
      }
    },
    {
      "type": "Feature",
      "geometry": {
        "type": "Point",
        "coordinates": [
          30.134969,
          61.019283
        ]
      },
      "properties": {
        "name": "АЗС-231",
        "address": "Ленинградская область, г. Приозерск, ул. Леншоссе, д. 80",
        "phone": "(81379) 35-252"
      }
    },
    {
      "type": "Feature",
      "geometry": {
        "type": "Point",
        "coordinates": [
          28.131239236206838,
          59.103823427106626
        ]
      },
      "properties": {
        "name": "АЗС-232",
        "address": "Ленинградская область, Сланцевский муниципальный район, Сланцевское городское поселение, г. Сланцы, Сланцевское шоссе, д. 31",
        "phone": "(81374) 36-292"
      }
    },
    {
      "type": "Feature",
      "geometry": {
        "type": "Point",
        "coordinates": [
          28.108867,
          59.1047
        ]
      },
      "properties": {
        "name": "АЗС-233",
        "address": "Ленинградская область, Сланцевский муниципальный район, Сланцевское городское поселение, г. Сланцы, Сланцевское шоссе, д. 44",
        "phone": "(81374) 36-293"
      }
    },
    {
      "type": "Feature",
      "geometry": {
        "type": "Point",
        "coordinates": [
          34.211225,
          59.925878
        ]
      },
      "properties": {
        "name": "АЗС-235",
        "address": "Ленинградская область, Тихвинский муниципальный район, Шугозерское сельское поселение, п. Шугозеро, пер. Тихвинский, д. 13",
        "phone": "(81367) 44-159"
      }
    },
    {
      "type": "Feature",
      "geometry": {
        "type": "Point",
        "coordinates": [
          33.517017,
          59.638017
        ]
      },
      "properties": {
        "name": "АЗС-237",
        "address": "Ленинградская область, Тихвинский муниципальный район, Тихвинское городское поселение, город Тихвин, улица Школьная, дом 3",
        "phone": "(81367) 53-961"
      }
    },
    {
      "type": "Feature",
      "geometry": {
        "type": "Point",
        "coordinates": [
          33.500967,
          59.669967
        ]
      },
      "properties": {
        "name": "АЗС-238",
        "address": "Ленинградская обл,Тихвинский р-н,Тихвин г,Советская ул, Дом 150",
        "phone": "(81367) 51-539"
      }
    },
    {
      "type": "Feature",
      "geometry": {
        "type": "Point",
        "coordinates": [
          33.0802,
          59.695267
        ]
      },
      "properties": {
        "name": "АЗС-248",
        "address": "Ленинградская область, Тихвинский муниципальный район, Цвылевское сельское поселение, деревня Сугорово, Песочная, дом 2",
        "phone": "+7-921-435-45-29"
      }
    },
    {
      "type": "Feature",
      "geometry": {
        "type": "Point",
        "coordinates": [
          30.035281,
          59.847377
        ]
      },
      "properties": {
        "name": "АЗК-34",
        "address": "г. Санкт-Петербург, поселок Стрельна, ул. Фронтовая, дом 8б литер А",
        "phone": "(812) 325-33-47 доб. 10340"
      }
    }
  ]
}